[
    {
        "name": "Belarus",
        "mmr": 2,
        "category": "Very Low (<100)",
        "geometry": {
            "lat": "53.744",
            "lng": "27.947"
        }
    },
    {
        "name": "Italy",
        "mmr": 2,
        "category": "Very Low (<100)",
        "geometry": {
            "lat": "45.3889",
            "lng": "10.7776"
        }
    },
    {
        "name": "Norway",
        "mmr": 2,
        "category": "Very Low (<100)",
        "geometry": {
            "lat": "60.5366",
            "lng": "7.4496"
        }
    },
    {
        "name": "Poland",
        "mmr": 2,
        "category": "Very Low (<100)",
        "geometry": {
            "lat": "52.1484",
            "lng": "19.311"
        }
    },
    {
        "name": "Czechia",
        "mmr": 3,
        "category": "Very Low (<100)",
        "geometry": {
            "lat": "49.836",
            "lng": "15.5465"
        }
    },
    {
        "name": "Finland",
        "mmr": 3,
        "category": "Very Low (<100)",
        "geometry": {
            "lat": "63.0704",
            "lng": "27.7396"
        }
    },
    {
        "name": "Greece",
        "mmr": 3,
        "category": "Very Low (<100)",
        "geometry": {
            "lat": "38.4414",
            "lng": "22.1814"
        }
    },
    {
        "name": "Israel",
        "mmr": 3,
        "category": "Very Low (<100)",
        "geometry": {
            "lat": "30.6283",
            "lng": "34.7087"
        }
    },
    {
        "name": "United Arab Emirates",
        "mmr": 3,
        "category": "Very Low (<100)",
        "geometry": {
            "lat": "23.3865",
            "lng": "54.2485"
        }
    },
    {
        "name": "Denmark",
        "mmr": 4,
        "category": "Very Low (<100)",
        "geometry": {
            "lat": "56.2196",
            "lng": "9.3108"
        }
    },
    {
        "name": "Iceland",
        "mmr": 4,
        "category": "Very Low (<100)",
        "geometry": {
            "lat": "65.0115",
            "lng": "-18.968"
        }
    },
    {
        "name": "Spain",
        "mmr": 4,
        "category": "Very Low (<100)",
        "geometry": {
            "lat": "40.3544",
            "lng": "-3.611"
        }
    },
    {
        "name": "Sweden",
        "mmr": 4,
        "category": "Very Low (<100)",
        "geometry": {
            "lat": "58.581",
            "lng": "14.246"
        }
    },
    {
        "name": "Austria",
        "mmr": 5,
        "category": "Very Low (<100)",
        "geometry": {
            "lat": "47.614",
            "lng": "14.0762"
        }
    },
    {
        "name": "Belgium",
        "mmr": 5,
        "category": "Very Low (<100)",
        "geometry": {
            "lat": "50.6522",
            "lng": "4.5809"
        }
    },
    {
        "name": "Ireland",
        "mmr": 5,
        "category": "Very Low (<100)",
        "geometry": {
            "lat": "53.1805",
            "lng": "-8.01"
        }
    },
    {
        "name": "Japan",
        "mmr": 5,
        "category": "Very Low (<100)",
        "geometry": {
            "lat": "36.8513",
            "lng": "139.1112"
        }
    },
    {
        "name": "Luxembourg",
        "mmr": 5,
        "category": "Very Low (<100)",
        "geometry": {
            "lat": "49.7275",
            "lng": "5.9585"
        }
    },
    {
        "name": "Netherlands",
        "mmr": 5,
        "category": "Very Low (<100)",
        "geometry": {
            "lat": "52.157",
            "lng": "5.2035"
        }
    },
    {
        "name": "Slovakia",
        "mmr": 5,
        "category": "Very Low (<100)",
        "geometry": {
            "lat": "48.7266",
            "lng": "19.5075"
        }
    },
    {
        "name": "Switzerland",
        "mmr": 5,
        "category": "Very Low (<100)",
        "geometry": {
            "lat": "46.7919",
            "lng": "8.1183"
        }
    },
    {
        "name": "Australia",
        "mmr": 6,
        "category": "Very Low (<100)",
        "geometry": {
            "lat": "-23.079",
            "lng": "132.842"
        }
    },
    {
        "name": "Cyprus",
        "mmr": 6,
        "category": "Very Low (<100)",
        "geometry": {
            "lat": "34.8725",
            "lng": "33.131"
        }
    },
    {
        "name": "Malta",
        "mmr": 6,
        "category": "Very Low (<100)",
        "geometry": {
            "lat": "35.8975",
            "lng": "14.4185"
        }
    },
    {
        "name": "Montenegro",
        "mmr": 6,
        "category": "Very Low (<100)",
        "geometry": {
            "lat": "42.7891",
            "lng": "19.2862"
        }
    },
    {
        "name": "Germany",
        "mmr": 7,
        "category": "Very Low (<100)",
        "geometry": {
            "lat": "51.143",
            "lng": "9.829"
        }
    },
    {
        "name": "Slovenia",
        "mmr": 7,
        "category": "Very Low (<100)",
        "geometry": {
            "lat": "46.152",
            "lng": "15.1315"
        }
    },
    {
        "name": "North Macedonia",
        "mmr": 7,
        "category": "Very Low (<100)",
        "geometry": {
            "lat": "41.6059",
            "lng": "21.6977"
        }
    },
    {
        "name": "Turkmenistan",
        "mmr": 7,
        "category": "Very Low (<100)",
        "geometry": {
            "lat": "39.4791",
            "lng": "59.5154"
        }
    },
    {
        "name": "United Kingdom",
        "mmr": 7,
        "category": "Very Low (<100)",
        "geometry": {
            "lat": "52.4072",
            "lng": "-1.7451"
        }
    },
    {
        "name": "Croatia",
        "mmr": 8,
        "category": "Very Low (<100)",
        "geometry": {
            "lat": "46.001",
            "lng": "16.172"
        }
    },
    {
        "name": "France",
        "mmr": 8,
        "category": "Very Low (<100)",
        "geometry": {
            "lat": "46.6113",
            "lng": "2.3336"
        }
    },
    {
        "name": "Lithuania",
        "mmr": 8,
        "category": "Very Low (<100)",
        "geometry": {
            "lat": "55.1395",
            "lng": "23.822"
        }
    },
    {
        "name": "Portugal",
        "mmr": 8,
        "category": "Very Low (<100)",
        "geometry": {
            "lat": "38.7993",
            "lng": "-8.3502"
        }
    },
    {
        "name": "Singapore",
        "mmr": 8,
        "category": "Very Low (<100)",
        "geometry": {
            "lat": "1.3565",
            "lng": "103.8215"
        }
    },
    {
        "name": "Estonia",
        "mmr": 9,
        "category": "Very Low (<100)",
        "geometry": {
            "lat": "58.5425",
            "lng": "26.5455"
        }
    },
    {
        "name": "New Zealand",
        "mmr": 9,
        "category": "Very Low (<100)",
        "geometry": {
            "lat": "-44.7201",
            "lng": "169.9667"
        }
    },
    {
        "name": "Qatar",
        "mmr": 9,
        "category": "Very Low (<100)",
        "geometry": {
            "lat": "25.3217",
            "lng": "51.1836"
        }
    },
    {
        "name": "Bosnia and Herzegovina",
        "mmr": 10,
        "category": "Very Low (<100)",
        "geometry": {
            "lat": "44.1809",
            "lng": "17.8168"
        }
    },
    {
        "name": "Bulgaria",
        "mmr": 10,
        "category": "Very Low (<100)",
        "geometry": {
            "lat": "42.7345",
            "lng": "23.8815"
        }
    },
    {
        "name": "Canada",
        "mmr": 10,
        "category": "Very Low (<100)",
        "geometry": {
            "lat": "58.838",
            "lng": "-120.439"
        }
    },
    {
        "name": "Kazakhstan",
        "mmr": 10,
        "category": "Very Low (<100)",
        "geometry": {
            "lat": "48.9437",
            "lng": "67.6303"
        }
    },
    {
        "name": "Republic of Korea",
        "mmr": 11,
        "category": "Very Low (<100)",
        "geometry": {
            "lat": "36.0655",
            "lng": "127.7929"
        }
    },
    {
        "name": "Hungary",
        "mmr": 12,
        "category": "Very Low (<100)",
        "geometry": {
            "lat": "47.192",
            "lng": "20.498"
        }
    },
    {
        "name": "Kuwait",
        "mmr": 12,
        "category": "Very Low (<100)",
        "geometry": {
            "lat": "29.3073",
            "lng": "47.6003"
        }
    },
    {
        "name": "Serbia",
        "mmr": 12,
        "category": "Very Low (<100)",
        "geometry": {
            "lat": "44.2085",
            "lng": "20.7935"
        }
    },
    {
        "name": "Chile",
        "mmr": 13,
        "category": "Very Low (<100)",
        "geometry": {
            "lat": "-45.7382",
            "lng": "-72.9381"
        }
    },
    {
        "name": "Bahrain",
        "mmr": 14,
        "category": "Very Low (<100)",
        "geometry": {
            "lat": "26.0165",
            "lng": "50.5475"
        }
    },
    {
        "name": "Albania",
        "mmr": 15,
        "category": "Very Low (<100)",
        "geometry": {
            "lat": "41.1413",
            "lng": "20.0325"
        }
    },
    {
        "name": "Iran",
        "mmr": 16,
        "category": "Very Low (<100)",
        "geometry": {
            "lat": "31.9382",
            "lng": "55.5426"
        }
    },
    {
        "name": "Russian Federation",
        "mmr": 17,
        "category": "Very Low (<100)",
        "geometry": {
            "lat": "63.4218",
            "lng": "94.1005"
        }
    },
    {
        "name": "Saudi Arabia",
        "mmr": 17,
        "category": "Very Low (<100)",
        "geometry": {
            "lat": "23.7603",
            "lng": "45.0093"
        }
    },
    {
        "name": "Tajikistan",
        "mmr": 17,
        "category": "Very Low (<100)",
        "geometry": {
            "lat": "38.3213",
            "lng": "72.1918"
        }
    },
    {
        "name": "Turkey",
        "mmr": 17,
        "category": "Very Low (<100)",
        "geometry": {
            "lat": "39.3196",
            "lng": "34.3321"
        }
    },
    {
        "name": "Uruguay",
        "mmr": 17,
        "category": "Very Low (<100)",
        "geometry": {
            "lat": "-32.781",
            "lng": "-56.0032"
        }
    },
    {
        "name": "Latvia",
        "mmr": 19,
        "category": "Very Low (<100)",
        "geometry": {
            "lat": "56.7925",
            "lng": "26.9435"
        }
    },
    {
        "name": "Oman",
        "mmr": 19,
        "category": "Very Low (<100)",
        "geometry": {
            "lat": "22.019",
            "lng": "57.368"
        }
    },
    {
        "name": "Moldova",
        "mmr": 19,
        "category": "Very Low (<100)",
        "geometry": {
            "lat": "47.2036",
            "lng": "28.4105"
        }
    },
    {
        "name": "Romania",
        "mmr": 19,
        "category": "Very Low (<100)",
        "geometry": {
            "lat": "45.857",
            "lng": "24.9433"
        }
    },
    {
        "name": "Ukraine",
        "mmr": 19,
        "category": "Very Low (<100)",
        "geometry": {
            "lat": "48.8464",
            "lng": "33.5486"
        }
    },
    {
        "name": "United States of America",
        "mmr": 19,
        "category": "Very Low (<100)",
        "geometry": {
            "lat": "39.382",
            "lng": "-99.3421"
        }
    },
    {
        "name": "Puerto Rico (USA)",
        "mmr": 21,
        "category": "Very Low (<100)",
        "geometry": {
            "lat": "18.234",
            "lng": "-66.955"
        }
    },
    {
        "name": "Georgia",
        "mmr": 25,
        "category": "Very Low (<100)",
        "geometry": {
            "lat": "42.1618",
            "lng": "43.4818"
        }
    },
    {
        "name": "Grenada",
        "mmr": 25,
        "category": "Very Low (<100)",
        "geometry": {
            "lat": "12.1178",
            "lng": "-61.6791"
        }
    },
    {
        "name": "Armenia",
        "mmr": 26,
        "category": "Very Low (<100)",
        "geometry": {
            "lat": "40.2165",
            "lng": "45.0003"
        }
    },
    {
        "name": "Azerbaijan",
        "mmr": 26,
        "category": "Very Low (<100)",
        "geometry": {
            "lat": "40.2805",
            "lng": "47.6804"
        }
    },
    {
        "name": "Barbados",
        "mmr": 27,
        "category": "Very Low (<100)",
        "geometry": {
            "lat": "13.1645",
            "lng": "-59.5405"
        }
    },
    {
        "name": "Costa Rica",
        "mmr": 27,
        "category": "Very Low (<100)",
        "geometry": {
            "lat": "9.9656",
            "lng": "-84.1755"
        }
    },
    {
        "name": "State of Palestine",
        "mmr": 27,
        "category": "Very Low (<100)",
        "geometry": {
            "lat": "31.9479",
            "lng": "35.2478"
        }
    },
    {
        "name": "China",
        "mmr": 29,
        "category": "Very Low (<100)",
        "geometry": {
            "lat": "32.205",
            "lng": "109.444"
        }
    },
    {
        "name": "Lebanon",
        "mmr": 29,
        "category": "Very Low (<100)",
        "geometry": {
            "lat": "33.9117",
            "lng": "35.8708"
        }
    },
    {
        "name": "Malaysia",
        "mmr": 29,
        "category": "Very Low (<100)",
        "geometry": {
            "lat": "5.3893",
            "lng": "117.3568"
        }
    },
    {
        "name": "Uzbekistan",
        "mmr": 29,
        "category": "Very Low (<100)",
        "geometry": {
            "lat": "41.8936",
            "lng": "63.8434"
        }
    },
    {
        "name": "Brunei Darussalam",
        "mmr": 31,
        "category": "Very Low (<100)",
        "geometry": {
            "lat": "4.6904",
            "lng": "114.9152"
        }
    },
    {
        "name": "Syrian Arab Republic",
        "mmr": 31,
        "category": "Very Low (<100)",
        "geometry": {
            "lat": "35.0126",
            "lng": "38.5441"
        }
    },
    {
        "name": "Mexico",
        "mmr": 33,
        "category": "Very Low (<100)",
        "geometry": {
            "lat": "23.63",
            "lng": "-101.97"
        }
    },
    {
        "name": "Fiji",
        "mmr": 34,
        "category": "Very Low (<100)",
        "geometry": {
            "lat": "-17.814",
            "lng": "177.759"
        }
    },
    {
        "name": "Belize",
        "mmr": 36,
        "category": "Very Low (<100)",
        "geometry": {
            "lat": "17.197",
            "lng": "-88.7035"
        }
    },
    {
        "name": "Cuba",
        "mmr": 36,
        "category": "Very Low (<100)",
        "geometry": {
            "lat": "20.2717",
            "lng": "-75.3897"
        }
    },
    {
        "name": "Sri Lanka",
        "mmr": 36,
        "category": "Very Low (<100)",
        "geometry": {
            "lat": "7.7004",
            "lng": "80.6672"
        }
    },
    {
        "name": "Egypt",
        "mmr": 37,
        "category": "Very Low (<100)",
        "geometry": {
            "lat": "26.1939",
            "lng": "28.8939"
        }
    },
    {
        "name": "Thailand",
        "mmr": 37,
        "category": "Very Low (<100)",
        "geometry": {
            "lat": "15.4439",
            "lng": "100.9692"
        }
    },
    {
        "name": "Argentina",
        "mmr": 39,
        "category": "Very Low (<100)",
        "geometry": {
            "lat": "-31.9447",
            "lng": "-64.1398"
        }
    },
    {
        "name": "Antigua and Barbuda",
        "mmr": 42,
        "category": "Very Low (<100)",
        "geometry": {
            "lat": "17.079",
            "lng": "-61.804"
        }
    },
    {
        "name": "Samoa",
        "mmr": 43,
        "category": "Very Low (<100)",
        "geometry": {
            "lat": "-13.6305",
            "lng": "-172.4382"
        }
    },
    {
        "name": "Tunisia",
        "mmr": 43,
        "category": "Very Low (<100)",
        "geometry": {
            "lat": "33.7774",
            "lng": "9.0109"
        }
    },
    {
        "name": "Viet Nam",
        "mmr": 43,
        "category": "Very Low (<100)",
        "geometry": {
            "lat": "21.5866",
            "lng": "105.3047"
        }
    },
    {
        "name": "Mongolia",
        "mmr": 45,
        "category": "Very Low (<100)",
        "geometry": {
            "lat": "46.1689",
            "lng": "105.3854"
        }
    },
    {
        "name": "El Salvador",
        "mmr": 46,
        "category": "Very Low (<100)",
        "geometry": {
            "lat": "13.7262",
            "lng": "-88.8729"
        }
    },
    {
        "name": "Jordan",
        "mmr": 46,
        "category": "Very Low (<100)",
        "geometry": {
            "lat": "30.7659",
            "lng": "36.4909"
        }
    },
    {
        "name": "Panama",
        "mmr": 52,
        "category": "Very Low (<100)",
        "geometry": {
            "lat": "8.4165",
            "lng": "-81.7705"
        }
    },
    {
        "name": "Tonga",
        "mmr": 52,
        "category": "Very Low (<100)",
        "geometry": {
            "lat": "-21.1655",
            "lng": "-175.2625"
        }
    },
    {
        "name": "Maldives",
        "mmr": 53,
        "category": "Very Low (<100)",
        "geometry": {
            "lat": "4.1909",
            "lng": "73.5081"
        }
    },
    {
        "name": "Seychelles",
        "mmr": 53,
        "category": "Very Low (<100)",
        "geometry": {
            "lat": "-4.6761",
            "lng": "55.4673"
        }
    },
    {
        "name": "Cabo Verde",
        "mmr": 58,
        "category": "Very Low (<100)",
        "geometry": {
            "lat": "15.0819",
            "lng": "-23.6368"
        }
    },
    {
        "name": "Ecuador",
        "mmr": 59,
        "category": "Very Low (<100)",
        "geometry": {
            "lat": "-1.4547",
            "lng": "-78.3841"
        }
    },
    {
        "name": "Brazil",
        "mmr": 60,
        "category": "Very Low (<100)",
        "geometry": {
            "lat": "-12.4328",
            "lng": "-48.9943"
        }
    },
    {
        "name": "Kyrgyzstan",
        "mmr": 60,
        "category": "Very Low (<100)",
        "geometry": {
            "lat": "41.7909",
            "lng": "74.9911"
        }
    },
    {
        "name": "Mauritius",
        "mmr": 61,
        "category": "Very Low (<100)",
        "geometry": {
            "lat": "-20.2793",
            "lng": "57.5696"
        }
    },
    {
        "name": "Honduras",
        "mmr": 65,
        "category": "Very Low (<100)",
        "geometry": {
            "lat": "14.8229",
            "lng": "-86.5899"
        }
    },
    {
        "name": "Trinidad and Tobago",
        "mmr": 67,
        "category": "Very Low (<100)",
        "geometry": {
            "lat": "10.4282",
            "lng": "-61.3304"
        }
    },
    {
        "name": "Saint Vincent and the Grenadines",
        "mmr": 68,
        "category": "Very Low (<100)",
        "geometry": {
            "lat": "13.2566",
            "lng": "-61.1938"
        }
    },
    {
        "name": "Bahamas",
        "mmr": 70,
        "category": "Very Low (<100)",
        "geometry": {
            "lat": "24.5065",
            "lng": "-77.916"
        }
    },
    {
        "name": "Morocco",
        "mmr": 70,
        "category": "Very Low (<100)",
        "geometry": {
            "lat": "31.7",
            "lng": "-7.1325"
        }
    },
    {
        "name": "Libya",
        "mmr": 72,
        "category": "Very Low (<100)",
        "geometry": {
            "lat": "25.9354",
            "lng": "20.7569"
        }
    },
    {
        "name": "Vanuatu",
        "mmr": 72,
        "category": "Very Low (<100)",
        "geometry": {
            "lat": "-15.296",
            "lng": "166.885"
        }
    },
    {
        "name": "Iraq",
        "mmr": 79,
        "category": "Very Low (<100)",
        "geometry": {
            "lat": "33.242",
            "lng": "42.935"
        }
    },
    {
        "name": "Jamaica",
        "mmr": 80,
        "category": "Very Low (<100)",
        "geometry": {
            "lat": "18.1125",
            "lng": "-77.269"
        }
    },
    {
        "name": "Colombia",
        "mmr": 83,
        "category": "Very Low (<100)",
        "geometry": {
            "lat": "3.6525",
            "lng": "-73.3121"
        }
    },
    {
        "name": "Micronesia (Federated States of)",
        "mmr": 88,
        "category": "Very Low (<100)",
        "geometry": {
            "lat": "6.8827",
            "lng": "158.234"
        }
    },
    {
        "name": "Peru",
        "mmr": 88,
        "category": "Very Low (<100)",
        "geometry": {
            "lat": "-13.1699",
            "lng": "-73.0464"
        }
    },
    {
        "name": "Democratic People\u2019s Republic of Korea",
        "mmr": 89,
        "category": "Very Low (<100)",
        "geometry": {
            "lat": "39.6627",
            "lng": "126.2592"
        }
    },
    {
        "name": "Kiribati",
        "mmr": 92,
        "category": "Very Low (<100)",
        "geometry": {
            "lat": "0.4483",
            "lng": "-171.6645"
        }
    },
    {
        "name": "Dominican Republic",
        "mmr": 95,
        "category": "Very Low (<100)",
        "geometry": {
            "lat": "18.8845",
            "lng": "-70.4623"
        }
    },
    {
        "name": "Guatemala",
        "mmr": 95,
        "category": "Very Low (<100)",
        "geometry": {
            "lat": "15.2365",
            "lng": "-90.7275"
        }
    },
    {
        "name": "Nicaragua",
        "mmr": 98,
        "category": "Very Low (<100)",
        "geometry": {
            "lat": "12.8482",
            "lng": "-85.0204"
        }
    },
    {
        "name": "Solomon islands",
        "mmr": 104,
        "category": "Low (100-299)",
        "geometry": {
            "lat": "-9.6225",
            "lng": "160.1702"
        }
    },
    {
        "name": "Algeria",
        "mmr": 112,
        "category": "Low (100-299)",
        "geometry": {
            "lat": "27.5231",
            "lng": "3.1685"
        }
    },
    {
        "name": "Saint Lucia",
        "mmr": 117,
        "category": "Low (100-299)",
        "geometry": {
            "lat": "13.9027",
            "lng": "-60.9703"
        }
    },
    {
        "name": "South Africa",
        "mmr": 119,
        "category": "Low (100-299)",
        "geometry": {
            "lat": "-29.6482",
            "lng": "23.1067"
        }
    },
    {
        "name": "Suriname",
        "mmr": 120,
        "category": "Low (100-299)",
        "geometry": {
            "lat": "4.1199",
            "lng": "-55.9116"
        }
    },
    {
        "name": "Philippines",
        "mmr": 121,
        "category": "Low (100-299)",
        "geometry": {
            "lat": "17.3711",
            "lng": "121.4954"
        }
    },
    {
        "name": "Venezuela",
        "mmr": 125,
        "category": "Low (100-299)",
        "geometry": {
            "lat": "7.1583",
            "lng": "-64.0124"
        }
    },
    {
        "name": "Paraguay",
        "mmr": 84,
        "category": "Very Low (<100)",
        "geometry": {
            "lat": "-21.9074",
            "lng": "-60.1206"
        }
    },
    {
        "name": "Sao Tome and Principe",
        "mmr": 130,
        "category": "Low (100-299)",
        "geometry": {
            "lat": "0.2356",
            "lng": "6.6075"
        }
    },
    {
        "name": "Pakistan",
        "mmr": 140,
        "category": "Low (100-299)",
        "geometry": {
            "lat": "30.8325",
            "lng": "71.3748"
        }
    },
    {
        "name": "Timor-Leste",
        "mmr": 142,
        "category": "Low (100-299)",
        "geometry": {
            "lat": "-8.7676",
            "lng": "125.9664"
        }
    },
    {
        "name": "Botswana",
        "mmr": 144,
        "category": "Low (100-299)",
        "geometry": {
            "lat": "-21.6721",
            "lng": "23.9051"
        }
    },
    {
        "name": "India",
        "mmr": 145,
        "category": "Low (100-299)",
        "geometry": {
            "lat": "22.1596",
            "lng": "78.9305"
        }
    },
    {
        "name": "Papua New Guinea",
        "mmr": 145,
        "category": "Low (100-299)",
        "geometry": {
            "lat": "-6.1227",
            "lng": "143.5162"
        }
    },
    {
        "name": "Bolivia",
        "mmr": 155,
        "category": "Low (100-299)",
        "geometry": {
            "lat": "-16.7289",
            "lng": "-64.6413"
        }
    },
    {
        "name": "Cambodia",
        "mmr": 160,
        "category": "Low (100-299)",
        "geometry": {
            "lat": "12.5285",
            "lng": "104.3905"
        }
    },
    {
        "name": "Yemen",
        "mmr": 164,
        "category": "Low (100-299)",
        "geometry": {
            "lat": "15.3921",
            "lng": "45.4111"
        }
    },
    {
        "name": "Guyana",
        "mmr": 169,
        "category": "Low (100-299)",
        "geometry": {
            "lat": "4.8175",
            "lng": "-58.9745"
        }
    },
    {
        "name": "Bangladesh",
        "mmr": 173,
        "category": "Low (100-299)",
        "geometry": {
            "lat": "23.5391",
            "lng": "89.8049"
        }
    },
    {
        "name": "Indonesia",
        "mmr": 177,
        "category": "Low (100-299)",
        "geometry": {
            "lat": "-0.9517",
            "lng": "114.2118"
        }
    },
    {
        "name": "Bhutan",
        "mmr": 183,
        "category": "Low (100-299)",
        "geometry": {
            "lat": "27.5075",
            "lng": "90.459"
        }
    },
    {
        "name": "Lao People\u2019s Democratic Republic",
        "mmr": 185,
        "category": "Low (100-299)",
        "geometry": {
            "lat": "19.9325",
            "lng": "102.4435"
        }
    },
    {
        "name": "Nepal",
        "mmr": 186,
        "category": "Low (100-299)",
        "geometry": {
            "lat": "28.9136",
            "lng": "81.5974"
        }
    },
    {
        "name": "Namibia",
        "mmr": 195,
        "category": "Low (100-299)",
        "geometry": {
            "lat": "-20.7238",
            "lng": "17.0299"
        }
    },
    {
        "name": "Zambia",
        "mmr": 213,
        "category": "Low (100-299)",
        "geometry": {
            "lat": "-14.9226",
            "lng": "26.1418"
        }
    },
    {
        "name": "Angola",
        "mmr": 241,
        "category": "Low (100-299)",
        "geometry": {
            "lat": "-12.2916",
            "lng": "17.5029"
        }
    },
    {
        "name": "Djibouti",
        "mmr": 248,
        "category": "Low (100-299)",
        "geometry": {
            "lat": "12.169",
            "lng": "42.904"
        }
    },
    {
        "name": "Rwanda",
        "mmr": 248,
        "category": "Low (100-299)",
        "geometry": {
            "lat": "-2.0136",
            "lng": "29.9188"
        }
    },
    {
        "name": "Myanmar",
        "mmr": 250,
        "category": "Low (100-299)",
        "geometry": {
            "lat": "21.5841",
            "lng": "96.1867"
        }
    },
    {
        "name": "Gabon",
        "mmr": 252,
        "category": "Low (100-299)",
        "geometry": {
            "lat": "-0.647",
            "lng": "11.6875"
        }
    },
    {
        "name": "Comoros",
        "mmr": 273,
        "category": "Low (100-299)",
        "geometry": {
            "lat": "-11.79",
            "lng": "43.356"
        }
    },
    {
        "name": "Mozambique",
        "mmr": 289,
        "category": "Low (100-299)",
        "geometry": {
            "lat": "-13.497",
            "lng": "38.127"
        }
    },
    {
        "name": "Sudan",
        "mmr": 295,
        "category": "Low (100-299)",
        "geometry": {
            "lat": "16.5644",
            "lng": "29.0451"
        }
    },
    {
        "name": "Equatorial Guinea",
        "mmr": 301,
        "category": "High (300-499)",
        "geometry": {
            "lat": "1.647",
            "lng": "10.2955"
        }
    },
    {
        "name": "Ghana",
        "mmr": 308,
        "category": "High (300-499)",
        "geometry": {
            "lat": "6.862",
            "lng": "-1.092"
        }
    },
    {
        "name": "Senegal",
        "mmr": 315,
        "category": "High (300-499)",
        "geometry": {
            "lat": "14.9983",
            "lng": "-14.9588"
        }
    },
    {
        "name": "Burkina Faso",
        "mmr": 320,
        "category": "High (300-499)",
        "geometry": {
            "lat": "13.0516",
            "lng": "-0.6541"
        }
    },
    {
        "name": "Madagascar",
        "mmr": 335,
        "category": "High (300-499)",
        "geometry": {
            "lat": "-18.821",
            "lng": "46.8655"
        }
    },
    {
        "name": "Kenya",
        "mmr": 342,
        "category": "High (300-499)",
        "geometry": {
            "lat": "0.4145",
            "lng": "37.8745"
        }
    },
    {
        "name": "Malawi",
        "mmr": 349,
        "category": "High (300-499)",
        "geometry": {
            "lat": "-13.3315",
            "lng": "33.8445"
        }
    },
    {
        "name": "Uganda",
        "mmr": 375,
        "category": "High (300-499)",
        "geometry": {
            "lat": "1.9676",
            "lng": "32.9896"
        }
    },
    {
        "name": "Congo",
        "mmr": 378,
        "category": "High (300-499)",
        "geometry": {
            "lat": "0.0213",
            "lng": "16.1533"
        }
    },
    {
        "name": "Togo",
        "mmr": 396,
        "category": "High (300-499)",
        "geometry": {
            "lat": "8.8015",
            "lng": "0.9075"
        }
    },
    {
        "name": "Benin",
        "mmr": 397,
        "category": "High (300-499)",
        "geometry": {
            "lat": "10.6795",
            "lng": "2.2845"
        }
    },
    {
        "name": "Ethiopia",
        "mmr": 401,
        "category": "High (300-499)",
        "geometry": {
            "lat": "8.83",
            "lng": "38.362"
        }
    },
    {
        "name": "Eswatini",
        "mmr": 437,
        "category": "High (300-499)",
        "geometry": {
            "lat": "-26.4899",
            "lng": "31.3955"
        }
    },
    {
        "name": "Zimbabwe",
        "mmr": 458,
        "category": "High (300-499)",
        "geometry": {
            "lat": "-18.907",
            "lng": "29.7885"
        }
    },
    {
        "name": "Democratic Republic of the Congo",
        "mmr": 473,
        "category": "High (300-499)",
        "geometry": {
            "lat": "-1.6864",
            "lng": "23.7526"
        }
    },
    {
        "name": "Eritrea",
        "mmr": 480,
        "category": "High (300-499)",
        "geometry": {
            "lat": "15.9194",
            "lng": "38.4016"
        }
    },
    {
        "name": "Haiti",
        "mmr": 480,
        "category": "High (300-499)",
        "geometry": {
            "lat": "19.4448",
            "lng": "-72.1017"
        }
    },
    {
        "name": "Niger",
        "mmr": 509,
        "category": "Very High (500-999)",
        "geometry": {
            "lat": "17.3457",
            "lng": "9.3245"
        }
    },
    {
        "name": "Tanzania",
        "mmr": 524,
        "category": "Very High (500-999)",
        "geometry": {
            "lat": "-5.6989",
            "lng": "34.2839"
        }
    },
    {
        "name": "Cameroon",
        "mmr": 529,
        "category": "Very High (500-999)",
        "geometry": {
            "lat": "4.5495",
            "lng": "11.3105"
        }
    },
    {
        "name": "Lesotho",
        "mmr": 544,
        "category": "Very High (500-999)",
        "geometry": {
            "lat": "-29.6255",
            "lng": "28.1698"
        }
    },
    {
        "name": "Burundi",
        "mmr": 548,
        "category": "Very High (500-999)",
        "geometry": {
            "lat": "-3.407",
            "lng": "29.8885"
        }
    },
    {
        "name": "Mali",
        "mmr": 562,
        "category": "Very High (500-999)",
        "geometry": {
            "lat": "18.4654",
            "lng": "-1.9417"
        }
    },
    {
        "name": "Guinea",
        "mmr": 576,
        "category": "Very High (500-999)",
        "geometry": {
            "lat": "10.6071",
            "lng": "-13.1511"
        }
    },
    {
        "name": "Gambia",
        "mmr": 597,
        "category": "Very High (500-999)",
        "geometry": {
            "lat": "13.5035",
            "lng": "-14.2265"
        }
    },
    {
        "name": "C\u00f4te d\u2019Ivoire",
        "mmr": 617,
        "category": "Very High (500-999)",
        "geometry": {
            "lat": "7.5538",
            "lng": "-5.6121"
        }
    },
    {
        "name": "Afghanistan",
        "mmr": 638,
        "category": "Very High (500-999)",
        "geometry": {
            "lat": "34.4754",
            "lng": "66.8303"
        }
    },
    {
        "name": "Liberia",
        "mmr": 661,
        "category": "Very High (500-999)",
        "geometry": {
            "lat": "6.7929",
            "lng": "-9.9769"
        }
    },
    {
        "name": "Guinea-Bissau",
        "mmr": 667,
        "category": "Very High (500-999)",
        "geometry": {
            "lat": "12.0227",
            "lng": "-15.1106"
        }
    },
    {
        "name": "Mauritania",
        "mmr": 766,
        "category": "Very High (500-999)",
        "geometry": {
            "lat": "19.1695",
            "lng": "-9.4755"
        }
    },
    {
        "name": "Central African Republic",
        "mmr": 829,
        "category": "Very High (500-999)",
        "geometry": {
            "lat": "7.2596",
            "lng": "21.6691"
        }
    },
    {
        "name": "Somalia",
        "mmr": 829,
        "category": "Very High (500-999)",
        "geometry": {
            "lat": "2.7589",
            "lng": "42.8847"
        }
    },
    {
        "name": "Nigeria",
        "mmr": 917,
        "category": "Very High (500-999)",
        "geometry": {
            "lat": "9.6551",
            "lng": "8.1061"
        }
    },
    {
        "name": "Sierra Leone",
        "mmr": 1120,
        "category": "Extremely High (>1000)",
        "geometry": {
            "lat": "8.5306",
            "lng": "-11.7953"
        }
    },
    {
        "name": "Chad",
        "mmr": 1140,
        "category": "Extremely High (>1000)",
        "geometry": {
            "lat": "17.1223",
            "lng": "19.3602"
        }
    },
    {
        "name": "South Sudan",
        "mmr": 1150,
        "category": "Extremely High (>1000)",
        "geometry": {
            "lat": "7.2928",
            "lng": "30.1985"
        }
    }
]